City_ID,City,Country,Date,Lat,Lng,Max Temp,Humidity,Cloudiness,Wind Speed,Current Description
0,Hermanus,ZA,2021-12-05 22:53:07,-34.4187,19.2345,60.91,94,100,10.36,light rain
1,Calamar,CO,2021-12-05 22:53:07,10.2511,-74.9146,84.15,76,43,8.43,scattered clouds
2,Kodiak,US,2021-12-05 22:53:08,57.79,-152.4072,34.07,84,100,13.33,overcast clouds
3,Cherskiy,RU,2021-12-05 22:53:08,68.75,161.3,-46.23,100,86,4.12,overcast clouds
4,Punta Arenas,CL,2021-12-05 22:52:21,-53.15,-70.9167,55.51,41,20,20.71,few clouds
5,Ribeira Grande,PT,2021-12-05 22:53:08,38.5167,-28.7,63.93,73,72,7.83,broken clouds
6,Sabang,ID,2021-12-05 22:50:41,5.8933,95.3214,81.0,77,90,14.34,overcast clouds
7,Morgan City,US,2021-12-05 22:53:09,29.6994,-91.2068,75.2,78,20,4.61,few clouds
8,Mataura,NZ,2021-12-05 22:53:09,-46.1927,168.8643,54.48,47,92,5.06,overcast clouds
9,Dharchula,IN,2021-12-05 22:53:09,29.85,80.5333,51.24,83,86,5.86,overcast clouds
10,Kruisfontein,ZA,2021-12-05 22:53:10,-34.0033,24.7314,62.89,92,73,10.11,broken clouds
11,Lavrentiya,RU,2021-12-05 22:53:10,65.5833,-171.0,29.25,96,100,19.08,snow
12,Hithadhoo,MV,2021-12-05 22:53:11,-0.6,73.0833,81.27,78,100,12.3,overcast clouds
13,Kahului,US,2021-12-05 22:53:11,20.8947,-156.47,75.85,83,90,4.61,moderate rain
14,Castro,BR,2021-12-05 22:53:11,-24.7911,-50.0119,63.46,90,88,3.58,overcast clouds
15,Caibarien,CU,2021-12-05 22:53:12,22.5206,-79.4669,77.22,81,46,9.89,scattered clouds
16,Ambon,ID,2021-12-05 22:53:12,-3.6954,128.1814,80.74,78,40,10.36,scattered clouds
17,Qaanaaq,GL,2021-12-05 22:52:05,77.484,-69.3632,20.52,81,100,6.4,overcast clouds
18,Khatanga,RU,2021-12-05 22:53:13,71.9667,102.5,-22.14,100,97,6.8,overcast clouds
19,Guerrero Negro,MX,2021-12-05 22:53:13,27.9769,-114.0611,67.44,69,0,16.22,clear sky
20,Butaritari,KI,2021-12-05 22:51:44,3.0707,172.7902,80.82,83,100,11.97,moderate rain
21,Tazovskiy,RU,2021-12-05 22:53:13,67.4667,78.7,-13.59,87,68,15.55,broken clouds
22,Ushuaia,AR,2021-12-05 22:51:42,-54.8,-68.3,49.66,57,40,28.77,scattered clouds
23,Busselton,AU,2021-12-05 22:51:54,-33.65,115.3333,61.05,67,58,17.4,broken clouds
24,Codrington,AU,2021-12-05 22:50:50,-38.2667,141.9667,70.02,41,99,10.29,overcast clouds
25,Kavaratti,IN,2021-12-05 22:53:14,10.5669,72.642,80.69,72,60,12.48,broken clouds
26,Tuatapere,NZ,2021-12-05 22:50:08,-46.1333,167.6833,54.82,51,84,6.85,broken clouds
27,Alofi,NU,2021-12-05 22:53:14,-19.0595,-169.9187,80.49,78,71,19.57,light rain
28,Karacakoy,TR,2021-12-05 22:53:15,41.4029,28.3834,53.64,90,14,7.76,few clouds
29,Takoradi,GH,2021-12-05 22:53:15,4.8845,-1.7554,80.56,84,48,8.72,scattered clouds
30,Victoria,HK,2021-12-05 22:50:07,22.2855,114.1577,64.26,55,34,1.01,scattered clouds
31,Hobart,AU,2021-12-05 22:53:15,-42.8794,147.3294,64.02,59,40,5.99,scattered clouds
32,Dali,CN,2021-12-05 22:53:16,25.7,100.1833,46.76,91,54,0.69,broken clouds
33,Sarapul,RU,2021-12-05 22:53:16,56.4763,53.7978,5.41,75,100,7.63,overcast clouds
34,Ponta Do Sol,PT,2021-12-05 22:53:16,32.6667,-17.1,65.03,71,27,9.31,scattered clouds
35,Mehamn,NO,2021-12-05 22:51:59,71.0357,27.8492,22.91,94,93,26.31,light snow
36,Albany,US,2021-12-05 22:52:46,42.6001,-73.9662,37.67,61,97,4.61,overcast clouds
37,Leningradskiy,RU,2021-12-05 22:53:17,69.3833,178.4167,-3.69,98,100,15.05,light snow
38,Saint-Philippe,RE,2021-12-05 22:53:13,-21.3585,55.7679,76.55,79,37,10.47,scattered clouds
39,Rikitea,PF,2021-12-05 22:53:17,-23.1203,-134.9692,76.5,74,99,8.61,overcast clouds
40,Verkhozim,RU,2021-12-05 22:53:18,52.7122,45.418,23.85,66,56,4.7,broken clouds
41,Thompson,CA,2021-12-05 22:51:53,55.7435,-97.8558,-18.24,76,1,8.05,clear sky
42,Iringa,TZ,2021-12-05 22:53:18,-7.7667,35.7,60.21,88,100,5.77,overcast clouds
43,Baker City,US,2021-12-05 22:53:18,44.7749,-117.8344,41.94,55,42,7.23,scattered clouds
44,Narsaq,GL,2021-12-05 22:53:19,60.9167,-46.05,22.51,68,100,21.85,overcast clouds
45,Hasaki,JP,2021-12-05 22:50:29,35.7333,140.8333,46.29,62,100,9.71,overcast clouds
46,Longyearbyen,SJ,2021-12-05 22:54:19,78.2186,15.6401,15.64,73,75,11.5,broken clouds
47,Smithers,CA,2021-12-05 22:54:19,54.7804,-127.1743,16.12,92,90,3.44,overcast clouds
48,Chuy,UY,2021-12-05 22:54:20,-33.6971,-53.4616,65.3,82,98,7.87,overcast clouds
49,Broome,US,2021-12-05 22:54:20,42.2506,-75.833,42.22,60,100,1.99,overcast clouds
50,Sao Filipe,CV,2021-12-05 22:54:20,14.8961,-24.4956,75.49,73,66,12.39,broken clouds
51,Damavand,IR,2021-12-05 22:54:20,35.7178,52.065,33.64,42,9,4.74,clear sky
52,Huancavelica,PE,2021-12-05 22:54:21,-12.7667,-74.9833,40.42,94,100,5.35,overcast clouds
53,Dalbandin,PK,2021-12-05 22:54:21,28.8947,64.4101,49.75,48,3,6.98,clear sky
54,Padang,ID,2021-12-05 22:54:21,-0.9492,100.3543,73.45,86,99,3.91,overcast clouds
55,Nishihara,JP,2021-12-05 22:49:33,26.1842,127.7558,67.28,66,40,11.5,scattered clouds
56,Sinnamary,GF,2021-12-05 22:54:22,5.3833,-52.95,77.58,88,95,8.28,light rain
57,Husavik,IS,2021-12-05 22:54:22,66.0449,-17.3389,42.71,73,100,27.47,moderate rain
58,Brumado,BR,2021-12-05 22:52:18,-14.2036,-41.6653,73.49,78,53,7.76,broken clouds
59,Mar Del Plata,AR,2021-12-05 22:51:54,-38.0023,-57.5575,66.22,80,0,15.01,clear sky
60,Barrow,US,2021-12-05 22:54:23,71.2906,-156.7887,10.56,89,100,17.05,overcast clouds
61,Berezovyy,RU,2021-12-05 22:54:23,51.6667,135.7,7.9,93,23,5.1,few clouds
62,Yellowknife,CA,2021-12-05 22:53:00,62.456,-114.3525,-19.68,84,20,3.44,few clouds
63,Ambulu,ID,2021-12-05 22:54:23,-8.345,113.6058,76.23,92,100,3.33,moderate rain
64,Dikson,RU,2021-12-05 22:54:24,73.5069,80.5464,-2.0,94,100,9.86,overcast clouds
65,Ancud,CL,2021-12-05 22:54:24,-41.8697,-73.8203,74.73,68,38,5.48,scattered clouds
66,Wodonga,AU,2021-12-05 22:54:24,-36.1167,146.8833,68.7,72,83,5.99,broken clouds
67,Necochea,AR,2021-12-05 22:54:25,-38.5473,-58.7368,63.03,75,0,9.17,clear sky
68,Norman Wells,CA,2021-12-05 22:54:25,65.282,-126.8329,-11.74,81,72,4.74,broken clouds
69,Vaini,TO,2021-12-05 22:54:25,-21.2,-175.2,80.76,89,75,13.8,broken clouds
70,Cabo San Lucas,MX,2021-12-05 22:53:23,22.8909,-109.9124,81.52,60,100,6.71,overcast clouds
71,Bagan,RU,2021-12-05 22:54:26,54.1001,77.6646,21.07,91,91,7.65,overcast clouds
72,Dubbo,AU,2021-12-05 22:54:26,-32.25,148.6167,57.33,94,90,13.8,light rain
73,Sayaxche,GT,2021-12-05 22:54:26,16.5167,-90.1667,76.62,78,6,1.16,clear sky
74,Hay River,CA,2021-12-05 22:54:27,60.8156,-115.7999,-13.02,70,1,3.44,clear sky
75,New Norfolk,AU,2021-12-05 22:54:27,-42.7826,147.0587,63.66,49,45,3.0,scattered clouds
76,Turukhansk,RU,2021-12-05 22:54:27,65.8167,87.9833,-36.74,99,21,4.63,few clouds
77,Bluff,NZ,2021-12-05 22:54:28,-46.6,168.3333,54.81,50,59,14.12,broken clouds
78,Inverness,GB,2021-12-05 22:54:28,57.4791,-4.224,34.99,88,66,1.01,broken clouds
79,Naze,JP,2021-12-05 22:54:28,28.3667,129.4833,63.52,70,66,17.31,broken clouds
80,Jamestown,US,2021-12-05 22:49:58,42.097,-79.2353,44.02,49,90,11.99,overcast clouds
81,Kavieng,PG,2021-12-05 22:54:29,-2.5744,150.7967,82.63,79,95,7.31,moderate rain
82,Monduli,TZ,2021-12-05 22:54:29,-3.3,36.45,61.61,83,98,5.06,overcast clouds
83,Port Elizabeth,ZA,2021-12-05 22:54:29,-33.918,25.5701,65.1,100,90,20.71,overcast clouds
84,Namatanai,PG,2021-12-05 22:54:30,-3.6667,152.4333,80.82,80,95,0.49,overcast clouds
85,Bay City,US,2021-12-05 22:54:30,43.5945,-83.8889,34.57,93,90,5.99,snow
86,Lamar,US,2021-12-05 22:54:30,33.6668,-95.5836,74.86,68,75,14.97,broken clouds
87,Ust-Tarka,RU,2021-12-05 22:54:31,55.5672,75.705,25.63,90,100,10.83,overcast clouds
88,Datong,CN,2021-12-05 22:54:31,40.0936,113.2914,25.43,51,0,8.28,clear sky
89,Santa Maria,BR,2021-12-05 22:54:31,-29.6842,-53.8069,81.7,54,20,6.91,few clouds
90,Puerto Ayora,EC,2021-12-05 22:54:32,-0.7393,-90.3518,76.96,85,53,9.62,broken clouds
91,Airai,TL,2021-12-05 22:54:32,-8.9266,125.4092,65.5,85,99,1.07,overcast clouds
92,Kapaa,US,2021-12-05 22:54:32,22.0752,-159.319,78.48,73,93,3.0,overcast clouds
93,Izhma,RU,2021-12-05 22:55:33,65.0083,53.9113,3.18,99,89,3.6,overcast clouds
94,Esperance,AU,2021-12-05 22:55:33,-33.8667,121.9,62.44,65,88,11.92,overcast clouds
95,Saldanha,ZA,2021-12-05 22:55:33,-33.0117,17.9442,60.85,93,14,16.93,few clouds
96,Chokurdakh,RU,2021-12-05 22:55:34,70.6333,147.9167,-42.14,99,57,5.82,broken clouds
97,Vila Velha,BR,2021-12-05 22:55:34,-20.3297,-40.2925,78.75,87,40,7.0,scattered clouds
98,Biloela,AU,2021-12-05 22:55:34,-24.4167,150.5,77.65,65,41,6.85,scattered clouds
99,Isangel,VU,2021-12-05 22:53:05,-19.55,169.2667,84.31,79,75,0.0,broken clouds
100,Tupik,RU,2021-12-05 22:55:35,54.4253,119.9327,6.03,68,3,6.73,clear sky
101,Churapcha,RU,2021-12-05 22:55:35,62.0025,132.4325,-11.74,95,100,6.06,overcast clouds
102,San Policarpo,PH,2021-12-05 22:55:36,12.1791,125.5072,79.43,77,64,14.09,broken clouds
103,Bathsheba,BB,2021-12-05 22:50:37,13.2167,-59.5167,81.21,69,75,20.71,broken clouds
104,Bredasdorp,ZA,2021-12-05 22:55:36,-34.5322,20.0403,60.28,96,100,8.48,light rain
105,Hilo,US,2021-12-05 22:55:32,19.7297,-155.09,79.29,86,75,18.41,heavy intensity rain
106,Ilulissat,GL,2021-12-05 22:51:50,69.2167,-51.1,24.37,69,100,13.96,overcast clouds
107,Arroyos Y Esteros,PY,2021-12-05 22:55:37,-25.0667,-57.1,89.35,43,94,6.46,overcast clouds
108,Xichang,CN,2021-12-05 22:55:37,27.8964,102.2634,46.71,88,52,1.97,broken clouds
109,Tuktoyaktuk,CA,2021-12-05 22:55:38,69.4541,-133.0374,-18.4,76,40,8.05,scattered clouds
110,Egvekinot,RU,2021-12-05 22:55:38,66.3167,-179.1667,-2.18,82,93,27.42,overcast clouds
111,Hami,CN,2021-12-05 22:55:38,42.8,93.45,29.12,52,99,5.37,overcast clouds
112,Ixtapa,MX,2021-12-05 22:54:46,20.7,-105.2,81.23,77,98,4.0,overcast clouds
113,Georgetown,MY,2021-12-05 22:55:39,5.4112,100.3354,76.95,81,20,5.99,few clouds
114,Kadambur,IN,2021-12-05 22:55:39,8.9833,77.8667,76.69,87,67,2.91,broken clouds
115,Provideniya,RU,2021-12-05 22:55:39,64.3833,-173.3,28.51,93,90,24.61,snow
116,Sistranda,NO,2021-12-05 22:55:40,63.7256,8.834,22.96,69,81,14.5,broken clouds
117,Siderno,IT,2021-12-05 22:55:40,38.2779,16.302,58.17,84,32,5.86,scattered clouds
118,Port Macquarie,AU,2021-12-05 22:55:40,-31.4333,152.9167,69.89,69,99,6.2,overcast clouds
119,Cape Town,ZA,2021-12-05 22:55:40,-33.9258,18.4232,61.27,90,75,3.0,moderate rain
120,Vagur,FO,2021-12-05 22:55:41,61.4732,-6.8119,41.59,63,75,22.59,broken clouds
121,Fairbanks,US,2021-12-05 22:55:41,64.8378,-147.7164,8.92,77,1,0.0,clear sky
122,Port Lincoln,AU,2021-12-05 22:55:41,-34.7333,135.8667,64.36,61,3,5.55,clear sky
123,Hirata,JP,2021-12-05 22:55:42,35.4333,132.8167,33.82,100,20,6.91,few clouds
124,Bandarbeyla,SO,2021-12-05 22:55:42,9.4942,50.8122,76.21,64,5,16.08,clear sky
125,Marsa Matruh,EG,2021-12-05 22:55:42,31.3525,27.2453,62.8,77,40,10.36,scattered clouds
126,Rio Grande,BR,2021-12-05 22:55:43,-32.035,-52.0986,69.94,82,21,11.92,few clouds
127,Avera,US,2021-12-05 22:54:22,33.194,-82.5271,67.66,69,100,5.03,overcast clouds
128,Upernavik,GL,2021-12-05 22:55:43,72.7868,-56.1549,25.09,74,100,3.29,overcast clouds
129,Nikolskoye,RU,2021-12-05 22:55:43,59.7035,30.7861,-0.6,97,8,4.56,clear sky
130,Yumen,CN,2021-12-05 22:55:44,40.2833,97.2,24.57,51,21,16.04,few clouds
131,Constitucion,CL,2021-12-05 22:54:18,-35.3333,-72.4167,63.73,68,5,4.94,clear sky
132,Santa Fe,AR,2021-12-05 22:55:21,-31.6333,-60.7,80.01,59,82,4.0,light rain
133,Mahebourg,MU,2021-12-05 22:55:44,-20.4081,57.7,78.26,78,75,9.22,broken clouds
134,Aksarka,RU,2021-12-05 22:55:45,66.5606,67.7975,-16.85,91,39,13.8,scattered clouds
135,Cidreira,BR,2021-12-05 22:55:45,-30.1811,-50.2056,69.64,87,50,14.76,scattered clouds
136,Gazanjyk,TM,2021-12-05 22:55:45,39.2446,55.5154,47.05,59,100,6.51,overcast clouds
137,George Town,MY,2021-12-05 22:52:01,5.4112,100.3354,77.9,81,20,5.99,few clouds
138,Kamenka,RU,2021-12-05 22:56:46,51.3223,42.7678,26.98,68,93,6.62,overcast clouds
139,Bilibino,RU,2021-12-05 22:56:46,68.0546,166.4372,-19.23,99,100,2.53,light snow
140,Kargasok,RU,2021-12-05 22:56:46,59.0556,80.8572,30.7,97,100,10.76,light snow
141,Bouca,CF,2021-12-05 22:54:13,6.5105,18.2733,75.88,43,100,2.28,overcast clouds
142,Ormara,PK,2021-12-05 22:56:47,25.2088,64.6357,71.76,28,0,13.18,clear sky
143,Suba,PH,2021-12-05 22:56:47,10.8438,121.0102,80.62,72,77,21.9,broken clouds
144,Valle De Allende,MX,2021-12-05 22:56:47,26.9333,-105.4,70.7,18,99,4.21,overcast clouds
145,Gold Coast,AU,2021-12-05 22:56:48,-28.0,153.4333,80.78,71,73,3.0,broken clouds
146,Labuhan,ID,2021-12-05 22:56:48,-6.8844,112.2051,78.49,80,100,6.38,overcast clouds
147,Beisfjord,NO,2021-12-05 22:53:12,68.3751,17.5988,12.25,59,0,8.3,clear sky
148,Dwarka,IN,2021-12-05 22:56:48,22.2394,68.9678,74.19,57,0,13.47,clear sky
149,Lewistown,US,2021-12-05 22:52:33,40.5992,-77.5714,47.61,36,90,4.61,overcast clouds
150,Jinchang,CN,2021-12-05 22:56:49,38.4953,102.1739,27.73,42,33,5.75,scattered clouds
151,Shache,CN,2021-12-05 22:56:49,38.4167,77.2406,29.34,34,100,1.9,overcast clouds
152,Arraial Do Cabo,BR,2021-12-05 22:56:49,-22.9661,-42.0278,75.16,88,20,16.11,few clouds
153,Bambous Virieux,MU,2021-12-05 22:56:50,-20.3428,57.7575,78.22,78,75,9.22,broken clouds
154,Kyren,RU,2021-12-05 22:56:50,51.6828,102.1408,17.82,73,63,3.02,broken clouds
155,Carnarvon,AU,2021-12-05 22:56:50,-24.8667,113.6333,73.47,73,0,16.11,clear sky
156,Petropavlovsk-Kamchatskiy,RU,2021-12-05 22:56:51,53.0452,158.6483,25.39,63,75,8.95,broken clouds
157,Pevek,RU,2021-12-05 22:56:51,69.7008,170.3133,-9.47,96,100,17.13,light snow
158,Pafos,CY,2021-12-05 22:56:51,34.7667,32.4167,55.18,76,20,9.22,few clouds
159,Aljezur,PT,2021-12-05 22:56:52,37.3191,-8.8033,53.35,80,0,11.25,clear sky
160,Tanout,NE,2021-12-05 22:56:52,14.9709,8.8879,67.51,17,80,11.21,broken clouds
161,Sechura,PE,2021-12-05 22:56:52,-5.5569,-80.8222,71.42,68,98,16.62,overcast clouds
162,Margate,GB,2021-12-05 22:56:53,51.3813,1.3862,42.96,91,85,17.85,overcast clouds
163,Pisco,PE,2021-12-05 22:56:53,-13.7,-76.2167,69.85,78,75,16.11,broken clouds
164,East London,ZA,2021-12-05 22:55:35,-33.0153,27.9116,68.79,94,100,4.61,overcast clouds
165,Flinders,AU,2021-12-05 22:56:53,-34.5833,150.8552,68.38,69,98,7.27,overcast clouds
166,Gimli,CA,2021-12-05 22:56:54,50.6336,-96.9907,10.44,72,100,19.57,overcast clouds
167,Port Alfred,ZA,2021-12-05 22:56:54,-33.5906,26.891,68.59,92,100,5.99,overcast clouds
168,Teguldet,RU,2021-12-05 22:56:54,57.3064,88.1667,31.5,92,100,13.44,overcast clouds
169,Severo-Kurilsk,RU,2021-12-05 22:55:45,50.6789,156.125,31.68,77,94,16.49,overcast clouds
170,Vardo,NO,2021-12-05 22:56:55,70.3705,31.1107,8.8,78,19,22.3,few clouds
171,Batagay-Alyta,RU,2021-12-05 22:54:43,67.8006,130.4114,-20.09,98,100,2.62,overcast clouds
172,Homer,US,2021-12-05 22:56:55,59.6425,-151.5483,34.77,94,100,15.7,light rain
173,Port Blair,IN,2021-12-05 22:56:55,11.6667,92.75,78.39,70,24,11.43,few clouds
174,Lata,PT,2021-12-05 22:56:56,40.1629,-8.3327,53.82,95,47,2.8,scattered clouds
175,Sorong,ID,2021-12-05 22:56:56,-0.8833,131.25,81.14,83,96,4.5,overcast clouds
176,Atuona,PF,2021-12-05 22:56:56,-9.8,-139.0333,78.46,76,5,18.14,clear sky
177,Coihaique,CL,2021-12-05 22:56:57,-45.5752,-72.0662,69.75,46,75,6.91,broken clouds
178,Petrolina,BR,2021-12-05 22:56:57,-9.3986,-40.5008,77.05,78,75,17.31,moderate rain
179,Komsomolskiy,UZ,2021-12-05 22:56:57,40.4272,71.7189,40.42,75,100,4.61,mist
180,Dumas,US,2021-12-05 22:56:58,35.8656,-101.9732,69.94,14,1,10.36,clear sky
181,Dunedin,NZ,2021-12-05 22:56:58,-45.8742,170.5036,54.81,66,97,3.0,overcast clouds
182,Sungaipenuh,ID,2021-12-05 22:56:58,-2.0833,101.3833,63.52,96,96,1.68,overcast clouds
183,Kamphaeng Phet,TH,2021-12-05 22:56:59,16.25,99.5,60.04,78,64,3.11,broken clouds
184,Aloleng,PH,2021-12-05 22:56:59,16.1307,119.7824,74.26,72,70,8.97,broken clouds
185,Artyom,AZ,2021-12-05 22:56:59,40.4723,50.333,50.14,85,100,21.56,overcast clouds
186,Cotonou,BJ,2021-12-05 22:58:00,6.3654,2.4183,84.18,84,20,10.36,few clouds
187,Katsuura,JP,2021-12-05 22:56:03,35.1333,140.3,49.1,74,100,8.63,overcast clouds
188,Makaha,US,2021-12-05 22:58:00,21.4694,-158.2175,72.05,78,62,17.34,light rain
189,Bambanglipuro,ID,2021-12-05 22:57:57,-7.95,110.2833,65.61,90,99,5.28,light rain
190,Fairhaven,US,2021-12-05 22:57:44,41.6376,-70.9036,42.1,70,75,3.76,broken clouds
191,Tasiilaq,GL,2021-12-05 22:58:01,65.6145,-37.6368,29.86,92,99,24.56,light snow
192,Bardsir,IR,2021-12-05 22:58:01,29.9227,56.5743,48.92,23,60,5.46,broken clouds
193,Gao,ML,2021-12-05 22:58:01,16.6362,1.637,74.77,11,23,8.72,few clouds
194,Oroville,US,2021-12-05 22:58:02,39.5138,-121.5564,75.76,47,56,1.36,broken clouds
195,Antsohihy,MG,2021-12-05 22:58:02,-14.8796,47.9875,77.07,70,7,4.25,clear sky
196,Pochutla,MX,2021-12-05 22:58:02,15.7432,-96.4661,85.82,59,0,5.95,clear sky
197,Okhotsk,RU,2021-12-05 22:58:03,59.3833,143.3,-12.73,88,19,12.37,few clouds
198,Paris,FR,2021-12-05 22:53:10,48.8534,2.3488,43.38,90,90,4.0,overcast clouds
199,Hofn,IS,2021-12-05 22:58:03,64.2539,-15.2082,41.11,95,100,30.89,moderate rain
200,Torbay,CA,2021-12-05 22:58:03,47.6666,-52.7314,32.68,75,20,6.91,few clouds
201,Iguatemi,BR,2021-12-05 22:58:04,-23.6803,-54.5611,81.16,43,91,3.24,overcast clouds
202,Hunchun,CN,2021-12-05 22:58:04,42.8675,130.3581,20.23,88,5,3.18,clear sky
203,Arlit,NE,2021-12-05 22:58:05,18.7369,7.3853,68.43,17,3,6.08,clear sky
204,Puerto Escondido,MX,2021-12-05 22:58:05,15.85,-97.0667,83.88,64,0,5.88,clear sky
205,Amlame,TG,2021-12-05 22:58:05,7.4667,0.9,76.95,31,67,2.06,broken clouds
206,Kaitangata,NZ,2021-12-05 22:58:06,-46.2817,169.8464,53.92,55,92,8.08,overcast clouds
207,Tongren,CN,2021-12-05 22:58:06,27.7172,109.1853,49.51,76,0,0.72,clear sky
208,Gat,IL,2021-12-05 22:58:06,31.61,34.7642,61.39,55,26,9.33,scattered clouds
209,Yarkovo,RU,2021-12-05 22:58:06,57.4028,67.0786,13.03,95,86,1.7,overcast clouds
210,Sitka,US,2021-12-05 22:58:07,57.0531,-135.33,35.49,75,90,9.22,light snow
211,Nanortalik,GL,2021-12-05 22:58:07,60.1432,-45.2371,27.07,68,96,34.9,light snow
212,Pathein,MM,2021-12-05 22:58:07,16.7833,94.7333,65.7,75,75,3.38,broken clouds
213,Bangkalan,ID,2021-12-05 22:58:08,-7.0455,112.7351,78.75,78,99,9.84,overcast clouds
214,Evensk,RU,2021-12-05 22:58:08,61.95,159.2333,-14.67,80,24,7.94,few clouds
215,Yulara,AU,2021-12-05 22:54:14,-25.2406,130.9889,69.64,68,40,12.66,scattered clouds
216,Kichmengskiy Gorodok,RU,2021-12-05 22:58:08,59.9816,45.7854,-8.57,98,23,2.48,few clouds
217,Grindavik,IS,2021-12-05 22:53:14,63.8424,-22.4338,40.95,93,90,20.71,overcast clouds
218,Northam,GB,2021-12-05 22:58:09,51.0333,-4.2167,42.62,77,83,4.7,broken clouds
219,Pacific Grove,US,2021-12-05 22:58:09,36.6177,-121.9166,72.3,82,40,4.0,haze
220,Fort Nelson,CA,2021-12-05 22:58:09,58.8053,-122.7002,-15.21,70,20,5.75,few clouds
221,Encheng,CN,2021-12-05 22:58:10,22.1839,112.3026,52.75,41,31,4.18,scattered clouds
222,Jacareacanga,BR,2021-12-05 22:58:10,-6.2222,-57.7528,75.11,95,98,1.39,overcast clouds
223,Merauke,ID,2021-12-05 22:58:10,-8.4667,140.3333,81.23,79,100,3.78,overcast clouds
224,Nikki,BJ,2021-12-05 22:58:11,9.9401,3.2108,77.83,25,99,2.33,overcast clouds
225,Boende,CD,2021-12-05 22:54:12,-0.2167,20.8667,71.8,90,100,2.37,overcast clouds
226,Broken Hill,AU,2021-12-05 22:58:11,-31.95,141.4333,73.11,28,40,8.05,scattered clouds
227,Avarua,CK,2021-12-05 22:58:12,-21.2078,-159.775,82.45,83,20,6.91,moderate rain
228,Baragaon,IN,2021-12-05 22:58:12,25.4333,82.8167,66.29,69,0,3.6,clear sky
229,Awjilah,LY,2021-12-05 22:58:12,29.1081,21.2869,57.27,60,0,6.62,clear sky
230,Oranjemund,NA,2021-12-05 22:55:03,-28.55,16.4333,61.86,90,37,7.0,scattered clouds
231,Christchurch,NZ,2021-12-05 22:54:53,-43.5333,172.6333,53.02,87,90,1.01,overcast clouds
232,Bowen,AU,2021-12-05 22:59:13,-20.0167,148.2333,84.42,59,15,15.86,few clouds
233,Itoman,JP,2021-12-05 22:59:13,26.1247,127.6694,68.02,64,20,6.91,few clouds
234,Neryungri,RU,2021-12-05 22:59:13,56.6709,124.6491,-5.85,96,99,3.49,overcast clouds
235,Jawhar,SO,2021-12-05 22:59:14,2.7809,45.5005,74.14,82,30,8.84,scattered clouds
236,Saskylakh,RU,2021-12-05 22:59:14,71.9167,114.0833,-30.32,98,100,4.5,overcast clouds
237,Souillac,MU,2021-12-05 22:59:14,-20.5167,57.5167,78.37,78,75,9.22,broken clouds
238,Faya,SA,2021-12-05 22:59:15,18.3851,42.4509,55.51,70,0,1.79,clear sky
239,Chernyshevskiy,RU,2021-12-05 22:59:15,63.0128,112.4714,-37.77,100,20,3.06,few clouds
240,Hirara,JP,2021-12-05 22:59:15,24.8,125.2833,68.27,68,20,13.8,few clouds
241,Atherton,GB,2021-12-05 22:59:16,53.5237,-2.4935,40.91,81,100,2.44,overcast clouds
242,Paamiut,GL,2021-12-05 22:56:04,61.994,-49.6678,25.16,68,100,13.98,light snow
243,Aswan,EG,2021-12-05 22:59:16,24.0934,32.907,60.1,38,0,9.22,clear sky
244,Coquimbo,CL,2021-12-05 22:59:17,-29.9533,-71.3436,60.53,82,40,11.5,scattered clouds
245,San Pedro,PH,2021-12-05 22:59:17,14.35,121.0167,75.09,78,20,4.61,few clouds
246,Palauig,PH,2021-12-05 22:59:14,15.435,119.9045,75.15,68,91,5.59,overcast clouds
247,Ileza,RU,2021-12-05 22:59:17,61.0533,43.9002,-6.45,100,91,2.21,overcast clouds
248,Muros,ES,2021-12-05 22:59:18,42.7762,-9.0603,53.24,94,52,4.54,broken clouds
249,Lazaro Cardenas,MX,2021-12-05 22:59:18,17.9583,-102.2,82.15,69,65,5.12,broken clouds
250,Santa Rosalia,MX,2021-12-05 22:59:19,27.3167,-112.2833,74.43,33,0,11.81,clear sky
251,Faanui,PF,2021-12-05 22:59:09,-16.4833,-151.75,81.37,66,44,17.02,scattered clouds
252,Olga,RU,2021-12-05 22:59:19,43.7444,135.2892,33.33,94,45,6.62,scattered clouds
253,Nouadhibou,MR,2021-12-05 22:59:19,20.931,-17.0347,67.98,56,39,10.36,dust
254,Lorengau,PG,2021-12-05 22:59:20,-2.0226,147.2712,86.27,72,65,16.33,broken clouds
255,Poum,NC,2021-12-05 22:59:20,-20.2333,164.0167,81.05,74,15,10.74,few clouds
256,Saint-Augustin,CA,2021-12-05 22:59:20,51.226,-58.6502,22.55,61,100,8.1,overcast clouds
257,Marrakesh,MA,2021-12-05 22:55:23,31.6315,-8.0083,50.07,57,0,4.61,clear sky
258,Hokitika,NZ,2021-12-05 22:59:21,-42.7167,170.9667,61.5,55,96,6.93,overcast clouds
259,Iwaki,JP,2021-12-05 22:59:21,37.05,140.8833,42.35,73,77,2.39,broken clouds
260,Alice Springs,AU,2021-12-05 22:59:11,-23.7,133.8833,74.75,50,3,8.05,clear sky
261,Tiksi,RU,2021-12-05 22:59:22,71.6872,128.8694,-16.01,95,100,6.11,overcast clouds
262,Olafsvik,IS,2021-12-05 22:59:22,64.8945,-23.7142,41.23,90,100,7.11,overcast clouds
263,Miles City,US,2021-12-05 22:55:10,46.4083,-105.8406,20.37,68,40,24.16,scattered clouds
264,Puerto Madryn,AR,2021-12-05 22:59:22,-42.7692,-65.0385,67.64,50,7,18.32,clear sky
265,Sola,VU,2021-12-05 22:59:23,-13.8833,167.55,83.07,79,90,0.0,overcast clouds
266,Mahibadhoo,MV,2021-12-05 22:59:23,3.7833,72.9667,82.17,73,33,13.18,scattered clouds
267,Arcachon,FR,2021-12-05 22:59:23,44.5875,-1.0519,46.45,76,75,6.91,broken clouds
268,Svetlogorsk,BY,2021-12-05 22:59:24,52.6333,29.7333,29.82,92,100,5.03,overcast clouds
269,Aykhal,RU,2021-12-05 22:59:24,66.0,111.5,-26.59,100,98,7.38,overcast clouds
270,Maceio,BR,2021-12-05 22:59:24,-9.6658,-35.7353,76.44,94,75,1.14,broken clouds
271,Cayenne,GF,2021-12-05 22:59:24,4.9333,-52.3333,77.09,90,96,3.44,overcast clouds
272,Pangnirtung,CA,2021-12-05 22:59:25,66.1451,-65.7125,7.74,97,100,6.91,light snow
273,Hobyo,SO,2021-12-05 22:58:00,5.3505,48.5268,78.42,77,16,15.64,few clouds
274,Coruripe,BR,2021-12-05 22:57:06,-10.1256,-36.1756,77.88,83,79,11.59,broken clouds
275,Belle Fourche,US,2021-12-05 22:57:21,44.6714,-103.8522,27.25,53,99,24.23,overcast clouds
276,Santiago Del Estero,AR,2021-12-05 22:59:25,-27.7951,-64.2615,82.8,43,35,3.47,scattered clouds
277,Bukama,CD,2021-12-05 23:00:26,-9.2,25.85,69.73,87,83,2.64,broken clouds
278,Viedma,AR,2021-12-05 23:00:26,-40.8135,-62.9967,72.45,33,0,18.59,clear sky
279,Te Anau,NZ,2021-12-05 22:58:09,-45.4167,167.7167,49.57,69,80,5.5,broken clouds
280,Issoudun,FR,2021-12-05 23:00:27,47.0,1.8333,41.65,93,90,11.5,overcast clouds
281,Launceston,AU,2021-12-05 23:00:27,-41.45,147.1667,63.61,68,90,4.0,overcast clouds
282,Kinlochleven,GB,2021-12-05 23:00:27,56.7115,-4.9661,38.75,89,84,4.59,broken clouds
283,Rorvik,NO,2021-12-05 23:00:28,64.8621,11.2373,20.16,78,0,22.55,clear sky
284,Lasa,IT,2021-12-05 23:00:28,46.6166,10.7002,30.61,92,95,5.59,overcast clouds
285,Xai-Xai,MZ,2021-12-05 23:00:28,-25.0519,33.6442,79.86,58,74,8.9,broken clouds
286,Amapa,BR,2021-12-05 22:56:48,1.0,-52.0,73.09,98,95,2.08,overcast clouds
287,Eureka,US,2021-12-05 23:00:29,40.8021,-124.1637,54.57,84,70,3.0,broken clouds
288,Santa Luzia,BR,2021-12-05 23:00:29,-19.7697,-43.8514,67.26,89,29,4.45,scattered clouds
289,Camacha,PT,2021-12-05 23:00:29,33.0833,-16.3333,62.02,63,75,13.8,broken clouds
290,Bitung,ID,2021-12-05 23:00:30,1.4451,125.1824,77.85,80,96,5.35,overcast clouds
291,Pemangkat,ID,2021-12-05 22:57:07,1.1667,108.9667,79.45,81,100,9.64,overcast clouds
292,Lompoc,US,2021-12-05 22:58:52,34.6391,-120.4579,81.01,36,0,15.43,clear sky
293,Lebu,CL,2021-12-05 23:00:30,-37.6167,-73.65,61.21,74,0,14.38,clear sky
294,Oussouye,SN,2021-12-05 23:00:31,12.485,-16.5469,75.45,65,99,5.44,overcast clouds
295,Coahuayana,MX,2021-12-05 23:00:31,18.7333,-103.6833,83.75,65,97,3.56,overcast clouds
296,Chengdu,CN,2021-12-05 23:00:00,30.6667,104.0667,53.49,71,40,4.47,mist
297,Clyde River,CA,2021-12-05 23:00:31,70.4692,-68.5914,6.94,93,100,24.25,light snow
298,Skelmersdale,GB,2021-12-05 23:00:32,53.5502,-2.7735,39.78,89,100,2.57,overcast clouds
299,Tessalit,ML,2021-12-05 23:00:32,20.1986,1.0114,66.69,16,66,8.55,broken clouds
300,Nurota,UZ,2021-12-05 23:00:32,40.5614,65.6886,35.69,79,2,5.44,clear sky
301,Izumo,JP,2021-12-05 23:00:33,35.3667,132.7667,43.7,78,15,4.29,few clouds
302,Tezu,IN,2021-12-05 23:00:33,27.9167,96.1667,64.22,60,91,3.06,overcast clouds
303,Dovolnoye,RU,2021-12-05 23:00:34,54.4958,79.6671,23.25,91,93,8.48,overcast clouds
304,Sao Joao Da Barra,BR,2021-12-05 23:00:34,-21.6403,-41.0511,75.6,85,32,14.14,scattered clouds
305,Gamba,GA,2021-12-05 23:00:34,-2.65,10.0,78.66,88,100,4.74,light rain
306,Deputatskiy,RU,2021-12-05 23:00:35,69.3,139.9,-24.68,97,100,2.91,overcast clouds
307,Bahia Blanca,AR,2021-12-05 22:56:18,-38.7196,-62.2724,73.06,49,0,7.74,clear sky
308,Ayr,GB,2021-12-05 23:00:35,55.4627,-4.6339,34.32,93,20,6.91,few clouds
309,Agadez,NE,2021-12-05 23:00:36,19.75,10.25,60.24,22,44,5.03,scattered clouds
310,Baracoa,CU,2021-12-05 23:00:36,20.3467,-74.4958,77.65,88,55,9.42,broken clouds
311,Hearst,CA,2021-12-05 23:00:36,49.6835,-83.6665,16.16,93,100,5.7,overcast clouds
312,Haines Junction,CA,2021-12-05 23:00:37,60.7522,-137.5108,0.66,99,100,2.13,overcast clouds
313,Kijang,KR,2021-12-05 23:00:34,35.2442,129.2139,40.73,67,30,3.58,scattered clouds
314,Gejiu,CN,2021-12-05 23:00:37,23.306,103.1635,38.91,93,4,2.46,clear sky
315,Adrar,MR,2021-12-05 23:00:37,20.5022,-10.0711,61.5,13,100,10.47,overcast clouds
316,Oil City,US,2021-12-05 23:00:38,41.4339,-79.7064,48.29,51,90,1.99,overcast clouds
317,Eenhana,NA,2021-12-05 23:00:38,-17.4667,16.3333,68.16,81,18,0.63,moderate rain
318,Charyshskoye,RU,2021-12-05 23:00:38,51.3978,83.5598,23.67,81,100,4.56,overcast clouds
319,Srednekolymsk,RU,2021-12-05 22:56:04,67.45,153.6833,-48.75,100,73,4.61,broken clouds
320,Riyadh,SA,2021-12-05 23:00:02,24.6877,46.7219,61.88,35,4,2.89,clear sky
321,Ugoofaaru,MV,2021-12-05 23:00:39,5.6667,73.0,81.88,75,46,9.75,scattered clouds
322,Cookeville,US,2021-12-05 23:01:39,36.1628,-85.5016,65.55,80,90,1.99,overcast clouds
323,Iqaluit,CA,2021-12-05 23:01:39,63.7506,-68.5145,9.7,72,100,13.0,overcast clouds
324,Altea,ES,2021-12-05 23:00:01,38.5989,-0.0514,54.3,56,10,14.09,clear sky
325,Port Lavaca,US,2021-12-05 23:01:40,28.615,-96.6261,78.85,85,75,12.66,broken clouds
326,Bengkulu,ID,2021-12-05 23:01:40,-3.8004,102.2655,74.98,88,94,6.49,overcast clouds
327,Inhambane,MZ,2021-12-05 23:01:40,-23.865,35.3833,77.05,85,0,9.69,clear sky
328,Raudeberg,NO,2021-12-05 22:59:22,61.9875,5.1352,36.19,75,100,5.01,overcast clouds
329,Ayorou,NE,2021-12-05 23:01:41,14.7308,0.9174,76.95,12,4,8.48,clear sky
330,Ankazoabo,MG,2021-12-05 23:01:41,-22.2833,44.5167,79.11,48,91,2.51,overcast clouds
331,San Luis,AR,2021-12-05 23:01:05,-33.295,-66.3356,72.37,63,54,15.75,broken clouds
332,Peniche,PT,2021-12-05 23:01:42,39.3558,-9.3811,56.62,74,91,17.09,overcast clouds
333,Te Horo,NZ,2021-12-05 23:01:42,-40.8084,175.1233,66.85,94,100,1.01,light rain
334,Ayyampettai,IN,2021-12-05 23:01:42,10.9014,79.1798,75.76,93,43,3.53,scattered clouds
335,Kulhudhuffushi,MV,2021-12-05 23:01:43,6.6221,73.07,81.12,75,47,8.39,scattered clouds
336,Lewiston,US,2021-12-05 23:01:43,44.1003,-70.2148,32.63,69,1,0.0,clear sky
337,Rancho Cordova,US,2021-12-05 23:01:43,38.5891,-121.3027,76.26,82,90,4.61,overcast clouds
338,Beira,MZ,2021-12-05 23:01:44,-19.8436,34.8389,78.53,84,0,8.7,clear sky
339,Karratha,AU,2021-12-05 23:01:01,-20.7377,116.8463,87.13,31,30,15.86,moderate rain
340,Sovetskiy,RU,2021-12-05 23:01:44,61.3614,63.5842,-2.72,96,99,3.47,light snow
341,Comodoro Rivadavia,AR,2021-12-05 23:01:44,-45.8667,-67.5,61.88,58,38,17.9,scattered clouds
342,Camopi,GF,2021-12-05 23:01:45,3.1655,-52.3158,73.27,99,100,1.97,overcast clouds
343,Kerema,PG,2021-12-05 23:01:45,-7.9631,145.7785,81.99,72,83,4.36,broken clouds
344,Lahat,ID,2021-12-05 23:01:45,-3.8,103.5333,71.69,97,100,1.79,overcast clouds
345,Daru,PG,2021-12-05 23:01:46,-9.0763,143.2092,82.06,75,100,1.54,overcast clouds
346,Tyumentsevo,RU,2021-12-05 23:01:46,53.3224,81.498,22.6,90,100,6.71,overcast clouds
347,Guasdualito,VE,2021-12-05 23:01:46,7.2424,-70.7324,87.8,62,87,3.44,overcast clouds
348,Thinadhoo,MV,2021-12-05 23:01:46,0.5333,72.9333,81.55,78,100,17.43,overcast clouds
349,La Ronge,CA,2021-12-05 23:01:47,55.1001,-105.2842,-9.9,89,86,8.05,overcast clouds
350,Pingliang,CN,2021-12-05 23:01:47,35.5392,106.6861,33.22,35,2,4.05,clear sky
351,Vila Franca Do Campo,PT,2021-12-05 23:01:47,37.7167,-25.4333,64.2,85,37,3.8,scattered clouds
352,Nalut,LY,2021-12-05 23:01:48,30.3333,10.85,46.78,36,0,9.66,clear sky
353,Cilaos,RE,2021-12-05 23:01:48,-21.1336,55.4719,63.1,77,65,2.06,broken clouds
354,Biltine,TD,2021-12-05 23:01:48,14.5333,20.9167,75.15,21,4,9.84,clear sky
355,Anadyr,RU,2021-12-05 22:59:33,64.75,177.4833,1.9,84,90,31.0,heavy snow
356,Megion,RU,2021-12-05 23:01:49,61.0296,76.1136,0.01,98,96,4.83,overcast clouds
357,Kaeo,NZ,2021-12-05 23:01:49,-35.1,173.7833,78.33,77,41,8.61,scattered clouds
358,Geraldton,AU,2021-12-05 23:01:49,-28.7667,114.6,72.12,77,1,9.22,clear sky
359,Jardim,BR,2021-12-05 22:59:40,-21.4803,-56.1381,85.84,39,97,6.02,overcast clouds
360,Roma,US,2021-12-05 22:57:25,43.2128,-75.4557,40.12,77,100,5.01,overcast clouds
361,Itaueira,BR,2021-12-05 23:01:50,-7.6033,-43.0256,76.84,75,36,2.06,scattered clouds
362,Deogarh,IN,2021-12-05 23:01:50,21.5333,84.7333,67.39,96,100,2.93,overcast clouds
363,Vostok,RU,2021-12-05 23:01:51,46.4856,135.8833,22.21,94,51,5.99,broken clouds
364,Talnakh,RU,2021-12-05 23:01:51,69.4865,88.3972,-16.8,99,100,13.47,snow
365,Agirish,RU,2021-12-05 23:01:51,61.9247,63.0231,-4.81,96,100,2.95,overcast clouds
366,Aklavik,CA,2021-12-05 23:01:52,68.2191,-135.0107,-15.52,88,11,8.41,few clouds
367,Male,MV,2021-12-05 23:01:52,4.1748,73.5089,81.93,73,15,12.19,few clouds
368,San Cristobal,VE,2021-12-05 23:01:52,7.7669,-72.225,68.95,74,75,2.01,broken clouds
369,Ponta Delgada,PT,2021-12-05 23:01:52,37.7333,-25.6667,64.51,63,75,3.44,broken clouds
370,Moerai,PF,2021-12-05 23:01:53,-22.4333,-151.3333,77.99,79,87,14.7,light rain
371,Imperial,US,2021-12-05 23:02:53,33.0334,-115.4175,88.09,13,0,5.12,clear sky
372,Madera,US,2021-12-05 23:02:42,37.1666,-119.8343,76.08,53,7,3.06,clear sky
373,Los Llanos De Aridane,ES,2021-12-05 23:02:54,28.6585,-17.9182,63.12,65,75,11.01,broken clouds
374,Paciran,ID,2021-12-05 23:02:54,-6.8767,112.3761,78.55,80,100,8.1,overcast clouds
375,Saint George,US,2021-12-05 23:02:54,37.1041,-113.5841,72.36,23,1,1.99,clear sky
376,Gari,RU,2021-12-05 23:02:55,59.4307,62.3497,3.67,93,87,3.49,light snow
377,Xining,CN,2021-12-05 23:02:55,36.6167,101.7667,24.48,43,5,0.4,clear sky
378,Tulum,MX,2021-12-05 23:02:56,20.2167,-87.4667,78.98,87,17,4.99,few clouds
379,Bani,DO,2021-12-05 23:02:56,18.2833,-70.3333,78.85,76,18,11.14,few clouds
380,Kortkeros,RU,2021-12-05 23:02:56,61.8106,51.5806,-11.2,98,14,2.64,few clouds
381,Maua,BR,2021-12-05 23:02:57,-23.6678,-46.4614,70.36,79,75,6.11,broken clouds
382,Funtua,NG,2021-12-05 23:02:57,11.5233,7.3081,69.21,26,27,9.24,scattered clouds
383,Tual,ID,2021-12-05 23:02:57,-5.6667,132.75,82.44,78,99,13.87,light rain
384,Aksha,RU,2021-12-05 23:02:58,50.2814,113.2867,12.45,84,14,5.32,few clouds
385,Filadelfia,US,2021-12-05 23:00:10,39.9523,-75.1638,49.69,63,89,3.0,overcast clouds
386,Vila,PT,2021-12-05 22:58:07,42.0304,-8.1588,42.33,82,86,3.51,overcast clouds
387,Killam,CA,2021-12-05 23:02:58,52.7834,-111.8518,-0.18,92,58,5.66,broken clouds
388,Westport,US,2021-12-05 23:01:09,41.1415,-73.3579,45.75,63,91,8.01,overcast clouds
389,Marshall,US,2021-12-05 23:02:59,34.3834,-86.3333,68.49,71,1,5.75,clear sky
390,Upata,VE,2021-12-05 23:02:59,8.0086,-62.3989,73.42,80,67,5.21,broken clouds
391,Destin,US,2021-12-05 23:02:59,30.3935,-86.4958,70.43,85,40,6.91,scattered clouds
392,Nouakchott,MR,2021-12-05 23:02:59,18.0858,-15.9785,76.93,28,100,11.54,overcast clouds
393,Tallahassee,US,2021-12-05 23:00:06,30.4383,-84.2807,66.52,90,7,5.17,clear sky
394,Gigmoto,PH,2021-12-05 23:02:06,13.7796,124.39,76.68,82,100,13.71,overcast clouds
395,Saint-Louis,SN,2021-12-05 23:03:00,16.3333,-15.0,83.26,12,100,9.08,overcast clouds
396,Caconde,BR,2021-12-05 23:03:01,-21.5294,-46.6439,66.85,92,76,2.37,broken clouds
397,Port Augusta,AU,2021-12-05 23:03:01,-32.5,137.7667,76.71,59,93,4.81,overcast clouds
398,Jiaocheng,CN,2021-12-05 23:03:01,24.6774,116.1389,45.25,75,0,3.56,clear sky
399,Preili,LV,2021-12-05 23:03:02,56.2944,26.7246,7.65,95,95,8.41,overcast clouds
400,Acarigua,VE,2021-12-05 22:59:25,9.5545,-69.1956,87.51,52,26,4.88,scattered clouds
401,Calvinia,ZA,2021-12-05 23:03:02,-31.4707,19.776,54.05,86,12,5.21,few clouds
402,Sorland,NO,2021-12-05 23:03:03,67.667,12.6934,26.83,65,76,10.69,broken clouds
403,Lakatoro,VU,2021-12-05 23:03:03,-16.0999,167.4164,83.64,70,20,7.61,few clouds
404,Atambua,ID,2021-12-05 23:03:03,-9.1061,124.8925,77.32,84,93,2.35,overcast clouds
405,Ostersund,SE,2021-12-05 23:00:54,63.1792,14.6357,10.85,79,90,9.22,overcast clouds
406,El Colomo,MX,2021-12-05 23:03:04,19.05,-104.25,87.78,70,100,3.74,overcast clouds
407,Sioux Lookout,CA,2021-12-05 23:03:04,50.1001,-91.917,21.58,95,100,5.23,overcast clouds
408,Brae,GB,2021-12-05 23:01:57,60.3964,-1.353,40.91,62,78,8.14,broken clouds
409,Trelew,AR,2021-12-05 23:03:04,-43.249,-65.3051,69.17,42,11,17.22,few clouds
410,Kozachi Laheri,UA,2021-12-05 23:03:05,46.7037,32.9776,38.89,83,100,7.85,overcast clouds
411,Coaldale,CA,2021-12-05 23:03:05,49.7167,-112.6185,9.16,80,100,2.21,overcast clouds
412,Atar,MR,2021-12-05 23:02:17,20.5169,-13.0499,69.6,15,100,10.31,overcast clouds
413,Argir,FO,2021-12-05 23:03:06,61.9959,-6.7715,38.37,62,63,18.3,broken clouds
414,Polson,US,2021-12-05 23:04:06,47.6936,-114.1632,32.72,46,11,6.71,few clouds
415,Laguna,US,2021-12-05 23:04:06,38.421,-121.4238,67.64,82,75,3.44,broken clouds
416,Ipixuna,BR,2021-12-05 23:04:07,-1.7625,-48.8043,75.15,91,88,2.21,overcast clouds
417,Grand Gaube,MU,2021-12-05 23:04:07,-20.0064,57.6608,78.39,70,7,4.0,clear sky
418,Dabola,GN,2021-12-05 23:04:07,10.75,-11.1167,73.33,29,3,2.59,clear sky
419,Kribi,CM,2021-12-05 23:04:07,2.95,9.9167,79.45,87,100,7.05,overcast clouds
420,Kalamare,BW,2021-12-05 23:04:08,-22.9337,26.5703,66.65,84,100,7.25,overcast clouds
421,Alyangula,AU,2021-12-05 23:04:08,-13.8483,136.4192,85.78,64,94,3.44,overcast clouds
422,Genhe,CN,2021-12-05 23:04:08,50.7833,121.5167,-0.76,98,94,3.89,overcast clouds
423,College,US,2021-12-05 23:04:09,64.8569,-147.8028,8.29,76,75,3.44,broken clouds
424,Kinsale,IE,2021-12-05 23:04:09,51.7075,-8.5306,46.24,87,75,8.05,broken clouds
425,Montepuez,MZ,2021-12-05 23:04:09,-13.1256,38.9997,71.98,88,99,5.44,overcast clouds
426,Mount Gambier,AU,2021-12-05 23:04:10,-37.8333,140.7667,68.22,37,74,6.96,broken clouds
427,Rivadavia,AR,2021-12-05 23:04:10,-33.1905,-68.4608,80.76,35,23,8.77,few clouds
428,Abnub,EG,2021-12-05 23:04:10,27.2696,31.1511,58.48,60,99,5.5,overcast clouds
429,Kawalu,ID,2021-12-05 23:04:11,-7.3817,108.2082,73.8,91,100,2.21,overcast clouds
430,Bakel,SN,2021-12-05 23:04:11,14.905,-12.4568,81.19,13,97,12.01,overcast clouds
431,Yanam,IN,2021-12-05 23:04:11,16.7333,82.2167,74.43,94,7,3.4,clear sky
432,Ostrovnoy,RU,2021-12-05 23:04:12,68.0531,39.5131,9.59,73,83,23.38,broken clouds
433,Caruray,PH,2021-12-05 23:04:12,10.3094,119.0128,77.49,81,50,8.28,scattered clouds
434,Guiratinga,BR,2021-12-05 23:04:12,-16.3494,-53.7583,76.24,82,87,3.2,overcast clouds
435,Ekhabi,RU,2021-12-05 23:04:13,53.5102,142.9671,6.78,96,86,5.17,overcast clouds
436,Denpasar,ID,2021-12-05 23:04:13,-8.65,115.2167,76.71,94,75,24.16,thunderstorm with rain
437,Cabra,ES,2021-12-05 23:04:13,37.4725,-4.4421,47.64,81,3,2.42,clear sky
438,Luderitz,NA,2021-12-05 23:04:14,-26.6481,15.1594,60.75,88,0,10.04,clear sky
439,Berdigestyakh,RU,2021-12-05 23:04:14,62.0989,126.6992,-9.71,92,100,7.87,overcast clouds
440,Sibu,MY,2021-12-05 23:04:14,2.3,111.8167,73.29,100,100,0.92,light rain
441,Mazatlan,MX,2021-12-05 23:02:13,23.2167,-106.4167,79.02,77,75,3.0,broken clouds
442,Ulaanbaatar,MN,2021-12-05 23:04:15,47.9077,106.8832,10.74,81,4,5.1,clear sky
443,Nichinan,JP,2021-12-05 23:04:15,31.6,131.3667,52.14,76,86,7.11,overcast clouds
444,Talaya,RU,2021-12-05 23:04:16,61.3833,152.75,-42.03,100,69,1.01,broken clouds
445,Kushmurun,KZ,2021-12-05 23:04:16,52.4503,64.6311,23.58,88,100,9.22,overcast clouds
446,Kang,BW,2021-12-05 23:04:16,-23.6752,22.7876,68.68,76,69,5.14,broken clouds
447,Richards Bay,ZA,2021-12-05 23:03:54,-28.783,32.0377,76.96,75,96,14.88,overcast clouds
448,Kysyl-Syr,RU,2021-12-05 23:04:17,63.8986,122.7617,-29.6,96,47,5.77,scattered clouds
449,Tahta,EG,2021-12-05 23:04:17,26.7693,31.5021,58.75,57,100,5.3,overcast clouds
450,Kosjeric,RS,2021-12-05 23:04:18,43.9961,19.9069,38.55,99,100,0.83,light rain
451,Dolores,AR,2021-12-05 23:00:02,-36.3132,-57.6792,61.95,92,91,7.96,overcast clouds
452,Sao Paulo De Olivenca,BR,2021-12-05 23:04:18,-3.3783,-68.8725,74.89,98,94,2.62,overcast clouds
453,Zhoucheng,CN,2021-12-05 23:04:19,35.9122,116.3117,38.39,62,40,1.52,scattered clouds
454,Zaysan,KZ,2021-12-05 23:04:19,47.4667,84.8667,19.31,85,95,1.05,overcast clouds
455,Arak,IR,2021-12-05 23:04:19,34.0917,49.6892,40.98,26,15,4.16,few clouds
456,Saint-Pierre,RE,2021-12-05 23:03:56,-21.3393,55.4781,76.64,73,0,4.61,clear sky
457,Panguna,PG,2021-12-05 23:04:20,-6.3164,155.4848,75.96,83,100,3.83,overcast clouds
458,Ust-Kuyga,RU,2021-12-05 23:04:20,70.0167,135.6,-24.59,100,100,3.15,overcast clouds
459,Asau,RO,2021-12-05 23:04:20,46.4333,26.4,33.96,82,93,3.33,overcast clouds
460,Verkhnevilyuysk,RU,2021-12-05 23:04:20,63.4453,120.3167,-29.47,94,27,5.32,scattered clouds
461,Aqtobe,KZ,2021-12-05 23:04:21,50.2797,57.2072,26.69,86,75,8.95,broken clouds
462,Gibara,CU,2021-12-05 23:05:21,21.1097,-76.1317,79.92,84,100,14.61,overcast clouds
463,Solnechnyy,RU,2021-12-05 23:05:21,50.7214,136.6319,10.8,94,97,4.63,overcast clouds
464,Kollo,NE,2021-12-05 23:05:22,13.3043,2.339,76.26,14,2,8.63,clear sky
465,Tautira,PF,2021-12-05 23:01:51,-17.7333,-149.15,86.02,74,80,16.37,broken clouds
466,Mglin,RU,2021-12-05 23:05:22,53.0591,32.8475,26.87,89,100,6.49,overcast clouds
467,Isla Vista,US,2021-12-05 23:05:23,34.4133,-119.861,83.07,56,1,5.75,clear sky
468,Veraval,IN,2021-12-05 23:05:23,20.9,70.3667,72.32,60,0,11.36,clear sky
469,Manakara,MG,2021-12-05 23:05:23,-22.1333,48.0167,74.23,93,4,6.46,light rain
470,Quatre Cocos,MU,2021-12-05 23:04:23,-20.2078,57.7625,78.1,71,28,11.77,scattered clouds
471,Acapulco,MX,2021-12-05 23:02:31,16.8634,-99.8901,84.02,74,1,5.75,clear sky
472,Karmala,IN,2021-12-05 23:05:24,18.4167,75.2,70.32,62,33,4.7,scattered clouds
473,Carbonia,IT,2021-12-05 23:05:24,39.1672,8.5222,43.99,75,100,17.54,light rain
474,Nome,US,2021-12-05 23:03:34,64.5011,-165.4064,32.07,87,90,26.46,light snow
475,Monroe,US,2021-12-05 23:05:25,43.1501,-77.6831,39.58,64,90,13.8,overcast clouds
476,Cutro,IT,2021-12-05 23:05:25,39.0353,16.9819,51.06,78,28,13.15,scattered clouds
477,Ono,JP,2021-12-05 23:05:25,34.85,134.9333,49.14,64,94,2.26,overcast clouds
478,Atasu,KZ,2021-12-05 23:01:51,48.6814,71.6433,31.71,98,100,6.58,light snow
479,Samarai,PG,2021-12-05 23:05:26,-10.6167,150.6667,83.43,73,99,9.62,overcast clouds
480,Araouane,ML,2021-12-05 23:05:26,18.9048,-3.5265,62.91,14,62,11.16,broken clouds
481,Xiongzhou,CN,2021-12-05 23:05:26,25.1167,114.3,44.6,67,0,1.45,clear sky
482,Moses Lake,US,2021-12-05 23:05:27,47.1301,-119.2781,38.61,41,1,3.44,clear sky
483,Coshocton,US,2021-12-05 23:03:04,40.272,-81.8596,52.52,63,99,1.01,overcast clouds
484,Pailitas,CO,2021-12-05 23:05:27,8.9565,-73.6255,79.74,80,76,2.62,broken clouds
485,Cockburn Town,TC,2021-12-05 23:05:27,21.4612,-71.1419,80.62,77,67,21.63,broken clouds
486,Nemuro,JP,2021-12-05 23:05:28,43.3236,145.575,38.12,73,3,15.3,clear sky
487,Vestmannaeyjar,IS,2021-12-05 23:03:11,63.4427,-20.2734,44.76,77,100,19.22,overcast clouds
488,Lidingo,SE,2021-12-05 23:05:28,59.3667,18.1833,21.09,83,90,6.91,light snow
489,Lanzhou,CN,2021-12-05 23:05:29,36.0564,103.7922,35.06,34,5,1.23,clear sky
490,Plouzane,FR,2021-12-05 23:05:29,48.3833,-4.6167,44.78,73,90,1.14,overcast clouds
491,Barabinsk,RU,2021-12-05 23:05:29,55.3571,78.357,24.42,91,81,12.28,broken clouds
492,Archidona,ES,2021-12-05 23:05:30,37.0965,-4.3887,49.37,84,4,4.21,clear sky
493,Fortuna,US,2021-12-05 23:05:30,40.5982,-124.1573,54.32,91,90,1.01,overcast clouds
494,Jalalabad,AF,2021-12-05 23:05:30,34.4265,70.4515,53.38,68,26,0.54,scattered clouds
495,Nuevo Imperial,PE,2021-12-05 23:05:31,-13.0754,-76.3172,67.39,84,100,3.85,overcast clouds
496,Kenai,US,2021-12-05 23:05:31,60.5544,-151.2583,19.15,92,90,8.05,snow
497,San Ramon,US,2021-12-05 23:05:31,37.7799,-121.978,65.3,74,1,3.0,haze
498,Disna,BY,2021-12-05 23:05:32,55.568,28.1971,17.49,95,100,7.61,overcast clouds
499,Pandamatenga,BW,2021-12-05 23:05:32,-18.5278,25.627,73.87,59,100,6.38,overcast clouds
500,Alpena,US,2021-12-05 23:05:32,45.0617,-83.4327,32.18,96,90,11.01,snow
501,Hazorasp,UZ,2021-12-05 23:05:33,41.3194,61.0742,30.04,79,18,8.93,few clouds
502,Bud,US,2021-12-05 23:05:33,39.447,-86.1758,57.88,92,100,15.35,overcast clouds
503,Reconquista,AR,2021-12-05 23:05:33,-29.15,-59.65,82.02,42,12,8.03,few clouds
504,Lev Tolstoy,RU,2021-12-05 23:06:34,53.2134,39.446,21.56,70,100,4.83,overcast clouds
505,Bethanien,NA,2021-12-05 23:06:34,-26.502,17.1583,58.41,59,0,6.42,clear sky
506,Beringovskiy,RU,2021-12-05 23:06:35,63.05,179.3167,6.84,81,100,35.99,overcast clouds
507,Kuah,MY,2021-12-05 23:06:35,6.3265,99.8432,78.1,71,78,14.45,broken clouds
508,Agropoli,IT,2021-12-05 23:06:35,40.3469,14.9966,49.28,86,100,5.79,overcast clouds
509,Mitsamiouli,KM,2021-12-05 23:03:31,-11.3847,43.2844,80.82,76,20,11.95,few clouds
510,Krasnoselkup,RU,2021-12-05 23:06:36,65.7,82.4667,-35.34,100,30,3.6,scattered clouds
511,Bethel,US,2021-12-05 23:05:42,41.3712,-73.414,43.16,53,75,4.61,broken clouds
512,Srandakan,ID,2021-12-05 23:06:36,-7.9386,110.2506,65.73,90,99,5.23,light rain
513,Fukue,JP,2021-12-05 23:06:36,32.6881,128.8419,57.38,61,100,6.24,overcast clouds
514,Marzuq,YE,2021-12-05 23:06:37,14.4,46.4667,59.81,39,3,1.83,clear sky
515,Hambantota,LK,2021-12-05 23:05:16,6.1241,81.1185,77.05,89,9,7.05,clear sky
516,Itarema,BR,2021-12-05 23:06:37,-2.9248,-39.9167,80.91,80,8,16.58,clear sky
517,Katherine,AU,2021-12-05 23:06:38,-14.4667,132.2667,79.12,83,75,10.36,broken clouds
518,Southbridge,US,2021-12-05 23:06:38,42.0751,-72.0334,38.52,60,99,1.99,overcast clouds
519,Liverpool,GB,2021-12-05 23:06:38,53.4106,-2.9779,39.18,90,75,1.01,broken clouds
520,Shenjiamen,CN,2021-12-05 23:05:25,29.9576,122.298,54.84,68,0,7.56,clear sky
521,Yerbogachen,RU,2021-12-05 23:06:39,61.2767,108.0108,-23.57,100,92,2.46,overcast clouds
522,Wegrow,PL,2021-12-05 23:06:39,52.3995,22.0163,35.55,90,100,5.79,overcast clouds
523,Manavadar,IN,2021-12-05 23:06:39,21.5,70.1333,70.02,57,0,8.14,clear sky
524,Sioux Falls,US,2021-12-05 23:06:40,43.55,-96.7003,34.97,57,90,29.93,overcast clouds
525,Ranfurly,NZ,2021-12-05 23:06:40,-45.1333,170.1,39.07,89,100,5.53,overcast clouds
526,Kings Park,US,2021-12-05 23:06:40,40.8862,-73.2573,45.79,57,98,1.99,overcast clouds
527,Caconda,AO,2021-12-05 23:06:41,-13.7333,15.0667,61.63,81,99,4.85,overcast clouds
528,Townsville,AU,2021-12-05 23:06:41,-19.25,146.8,85.08,62,40,14.97,scattered clouds
529,Salalah,OM,2021-12-05 23:06:41,17.0151,54.0924,71.31,41,0,7.54,clear sky
530,Rome,US,2021-12-05 23:06:42,34.257,-85.1647,62.31,84,75,1.99,broken clouds
531,Stolbishche,RU,2021-12-05 23:06:42,55.6468,49.216,23.45,85,75,8.99,broken clouds
532,Dehloran,IR,2021-12-05 23:06:42,32.6941,47.2679,62.42,25,16,9.78,few clouds
533,Marang,MY,2021-12-05 23:06:42,5.2056,103.2059,73.81,81,100,7.05,overcast clouds
534,Pico Rivera,US,2021-12-05 23:06:43,33.9831,-118.0967,79.68,67,1,5.75,haze
535,Russell,US,2021-12-05 23:03:40,32.3502,-85.1999,67.37,80,1,0.0,clear sky
536,Bulancak,TR,2021-12-05 23:06:43,40.9372,38.2291,46.22,93,0,0.0,clear sky
537,Cap-Aux-Meules,CA,2021-12-05 23:06:44,47.3821,-61.8597,31.5,58,100,27.07,overcast clouds
538,Vanimo,PG,2021-12-05 23:06:44,-2.6741,141.3028,84.56,70,96,4.56,overcast clouds
539,Aksu,CN,2021-12-05 23:06:44,41.1231,80.2644,29.61,46,100,1.03,overcast clouds
540,Tura,IN,2021-12-05 23:01:51,25.5198,90.2201,66.34,81,100,2.53,overcast clouds
541,Sobolevo,RU,2021-12-05 23:06:45,54.4299,31.8996,24.15,97,100,4.81,overcast clouds
542,Okha,RU,2021-12-05 23:06:45,53.5739,142.9478,8.33,94,84,5.86,broken clouds
543,Sesheke,ZM,2021-12-05 23:06:45,-17.4759,24.2968,70.61,72,100,2.77,overcast clouds
544,Balod,IN,2021-12-05 23:06:46,20.73,81.2047,63.59,96,2,3.58,clear sky
545,Ternate,ID,2021-12-05 23:06:46,0.8,127.4,82.24,79,94,9.73,overcast clouds
546,Strezhevoy,RU,2021-12-05 23:06:46,60.7333,77.5889,-0.02,99,100,4.38,overcast clouds
547,Nchelenge,ZM,2021-12-05 23:06:47,-9.3451,28.734,73.83,64,84,4.76,broken clouds
548,Rocha,UY,2021-12-05 23:06:27,-34.4833,-54.3333,61.07,97,86,5.23,overcast clouds
549,Okato,NZ,2021-12-05 23:06:47,-39.2,173.8833,67.42,96,100,14.07,moderate rain
550,Goldsboro,US,2021-12-05 23:07:47,35.3849,-77.9928,60.06,72,1,3.44,clear sky
551,Lagoa,PT,2021-12-05 23:03:07,39.05,-27.9833,63.07,75,84,11.9,broken clouds
552,Touros,BR,2021-12-05 23:04:17,-5.1989,-35.4608,81.5,78,63,15.64,broken clouds
553,Brooks,CA,2021-12-05 23:07:48,50.5834,-111.8851,4.03,75,86,4.09,overcast clouds
554,Jojoima,SL,2021-12-05 23:07:48,7.8792,-10.7878,76.28,87,94,2.86,overcast clouds
555,Stornoway,GB,2021-12-05 23:06:56,58.2093,-6.3865,41.94,71,75,8.01,broken clouds
556,Zakamensk,RU,2021-12-05 23:07:49,50.3741,103.2863,10.72,88,100,3.89,overcast clouds
557,Prince Rupert,CA,2021-12-05 23:07:49,54.3161,-130.3201,31.98,73,100,2.93,overcast clouds
558,Ahipara,NZ,2021-12-05 23:04:27,-35.1667,173.1667,74.77,66,56,9.86,broken clouds
559,Mayya,RU,2021-12-05 23:07:50,61.7333,130.2811,-26.28,99,100,3.04,overcast clouds
560,Ende,ID,2021-12-05 23:07:50,-8.8432,121.6623,78.4,87,100,1.72,overcast clouds
561,Liberal,US,2021-12-05 23:07:50,37.0431,-100.921,70.83,22,1,11.5,clear sky
562,Tateyama,JP,2021-12-05 23:07:51,34.9833,139.8667,50.09,77,100,11.5,overcast clouds
563,Verkhoshizhemye,RU,2021-12-05 23:07:51,58.011,49.1038,-1.1,98,20,3.02,few clouds
564,Ellisras,ZA,2021-12-05 23:07:51,-23.6649,27.7443,67.42,88,100,5.64,overcast clouds
565,Beli Potok,RS,2021-12-05 23:07:52,44.7061,20.5197,38.25,95,100,6.76,light rain
566,Valparaiso,CL,2021-12-05 23:07:52,-33.0393,-71.6273,63.48,80,20,5.75,few clouds
567,Floro,NO,2021-12-05 23:07:52,61.5996,5.0328,33.76,69,90,20.71,light snow
568,Pontes E Lacerda,BR,2021-12-05 23:03:38,-15.2261,-59.3353,75.65,95,99,3.06,heavy intensity rain
569,Marabba,SD,2021-12-05 23:05:47,12.35,32.1833,79.59,25,2,10.58,clear sky
570,Abu Dhabi,AE,2021-12-05 23:07:53,24.4667,54.3667,71.96,71,14,5.84,few clouds
571,Awallan,PH,2021-12-05 23:07:53,17.9244,121.913,67.87,93,62,1.32,broken clouds
572,Klaksvik,FO,2021-12-05 23:07:53,62.2266,-6.589,38.32,64,50,19.48,scattered clouds
573,Skelleftea,SE,2021-12-05 23:07:54,64.7507,20.9528,-10.84,84,75,3.44,light snow
574,Sabha,LY,2021-12-05 23:07:54,27.0377,14.4283,51.4,29,0,7.52,clear sky
575,Mount Isa,AU,2021-12-05 23:07:54,-20.7333,139.5,78.57,61,100,16.11,overcast clouds
576,Uzhur,RU,2021-12-05 23:03:13,55.3036,89.8339,20.79,91,99,6.26,overcast clouds
577,Senanga,ZM,2021-12-05 23:07:55,-16.1167,23.2667,68.29,85,94,5.64,moderate rain
578,North Bend,US,2021-12-05 23:05:10,43.4065,-124.2243,53.51,86,1,3.44,clear sky
579,Rustenburg,ZA,2021-12-05 23:07:55,-25.6676,27.2421,62.87,94,100,4.34,overcast clouds
580,Zetaquira,CO,2021-12-05 23:07:56,5.2822,-73.169,63.97,97,92,1.48,overcast clouds
581,Vryburg,ZA,2021-12-05 23:07:56,-26.9566,24.7284,61.77,73,72,4.5,broken clouds
582,Weinan,CN,2021-12-05 23:07:56,34.5036,109.5089,42.12,52,0,3.27,clear sky
583,Hauterive,FR,2021-12-05 23:07:57,46.0901,3.4459,39.96,97,100,6.96,overcast clouds
584,Ajdabiya,LY,2021-12-05 23:07:57,30.7554,20.2263,57.43,40,0,9.55,clear sky
585,Jos,NG,2021-12-05 23:07:57,9.9167,8.9,66.7,32,63,3.76,broken clouds
586,Basqal,AZ,2021-12-05 23:07:58,40.7552,48.391,27.12,38,81,6.08,broken clouds
587,Collie,AU,2021-12-05 23:07:58,-33.3667,116.15,57.97,65,37,12.57,scattered clouds
588,Lathrop,US,2021-12-05 23:07:58,37.8227,-121.2766,70.97,71,90,3.44,overcast clouds
589,San Patricio,US,2021-12-05 23:07:34,28.017,-97.5169,79.21,79,100,14.2,overcast clouds
590,Bonavista,CA,2021-12-05 23:06:31,48.6499,-53.1147,33.12,63,94,17.43,overcast clouds
591,Mayo,US,2021-12-05 23:07:59,38.8876,-76.5119,49.96,65,1,0.0,clear sky
592,Kodino,RU,2021-12-05 23:07:59,63.7198,39.6447,3.34,95,50,2.62,scattered clouds
593,Itaituba,BR,2021-12-05 23:09:00,-4.2761,-55.9836,77.59,85,100,1.97,overcast clouds
594,Llangefni,GB,2021-12-05 23:09:00,53.2556,-4.3106,42.73,87,89,3.44,overcast clouds
595,Paracuru,BR,2021-12-05 23:09:00,-3.41,-39.0306,83.1,78,7,14.43,clear sky
596,Zhoucun,CN,2021-12-05 23:09:01,36.8167,117.8167,42.78,54,96,1.48,overcast clouds
597,Nizwa,OM,2021-12-05 23:09:01,22.9333,57.5333,62.83,63,2,2.46,clear sky
598,Cantaura,VE,2021-12-05 23:09:01,9.3057,-64.3584,79.59,60,66,8.5,broken clouds
599,Aguie,NE,2021-12-05 23:09:02,13.506,7.7786,68.92,16,46,10.22,scattered clouds
600,Koumac,NC,2021-12-05 23:09:02,-20.5667,164.2833,83.26,67,10,2.86,clear sky
601,Walvis Bay,NA,2021-12-05 23:09:02,-22.9575,14.5053,59.09,86,0,10.16,clear sky
602,Sale,MA,2021-12-05 23:06:11,34.0389,-6.8166,53.64,100,35,0.0,scattered clouds
603,Bogacs,HU,2021-12-05 23:09:03,47.9,20.5333,34.56,98,100,5.79,overcast clouds
604,Zalantun,CN,2021-12-05 23:09:03,48.0,122.7167,21.51,67,2,16.71,clear sky
605,New Ulm,US,2021-12-05 23:09:03,44.3125,-94.4605,36.28,61,90,20.71,overcast clouds
606,Inongo,CD,2021-12-05 23:09:04,-1.95,18.2667,71.74,91,100,5.7,overcast clouds
607,Whitehorse,CA,2021-12-05 23:05:31,60.7161,-135.0538,-5.91,83,75,20.0,broken clouds
608,Lugovoy,KZ,2021-12-05 23:09:04,42.9472,72.7644,37.78,80,98,2.62,overcast clouds
609,Shushenskoye,RU,2021-12-05 23:09:05,53.325,91.9356,8.64,91,48,4.18,scattered clouds
610,Kupang,ID,2021-12-05 23:08:25,-10.1667,123.5833,81.18,94,75,3.44,broken clouds
611,Ruidoso,US,2021-12-05 23:09:05,33.3317,-105.673,58.86,13,1,11.5,clear sky
612,Fort-Shevchenko,KZ,2021-12-05 23:07:26,44.5086,50.263,44.92,64,98,2.3,overcast clouds
613,Betsiamites,CA,2021-12-05 23:09:05,48.9413,-68.646,14.05,73,38,11.07,scattered clouds
614,Chifeng,CN,2021-12-05 23:09:06,42.2683,118.9636,29.86,44,74,9.57,broken clouds
615,San Luis Rio Colorado,MX,2021-12-05 23:08:27,32.4631,-114.7767,82.6,12,0,10.29,clear sky
616,Rong Kwang,TH,2021-12-05 23:09:06,18.339,100.3174,60.55,81,12,1.79,few clouds
617,Petropavlivka,UA,2021-12-05 23:09:06,48.4564,36.4367,34.65,90,100,3.8,overcast clouds
618,Harper,LR,2021-12-05 23:09:07,4.375,-7.7169,80.4,81,24,8.75,few clouds
619,Marathon,US,2021-12-05 23:09:07,44.9,-89.7668,33.19,90,90,5.75,light snow
620,Yangambi,CD,2021-12-05 23:09:07,0.8102,24.4336,70.41,95,97,2.3,overcast clouds
621,Ayan,RU,2021-12-05 23:09:08,56.45,138.1667,21.4,67,100,6.02,overcast clouds
622,Giaveno,IT,2021-12-05 23:09:08,45.047,7.3492,36.32,56,74,1.99,broken clouds
623,Fuerte Olimpo,PY,2021-12-05 23:09:08,-21.0415,-57.8738,80.04,57,60,5.01,broken clouds
624,Moron,AR,2021-12-05 23:09:09,-34.6534,-58.6198,70.97,78,17,8.01,few clouds
625,Tevaitoa,PF,2021-12-05 23:09:09,-16.7833,-151.5,81.55,66,67,17.56,broken clouds
626,Finspang,SE,2021-12-05 23:09:09,58.7058,15.7674,19.51,86,53,6.78,broken clouds
627,Bilma,NE,2021-12-05 23:09:09,18.6853,12.9164,65.75,18,65,6.67,broken clouds
628,Bandundu,CD,2021-12-05 23:09:10,-3.3167,17.3667,73.09,93,100,1.66,overcast clouds
629,Moosomin,CA,2021-12-05 23:09:10,50.1333,-101.6677,3.9,91,100,18.54,overcast clouds
630,Boyabat,TR,2021-12-05 23:09:11,41.4689,34.7667,46.2,88,12,0.25,few clouds
631,Cabadiangan,PH,2021-12-05 23:09:11,9.7531,122.4739,75.24,86,84,7.25,broken clouds
632,Omboue,GA,2021-12-05 23:09:11,-1.5746,9.2618,76.96,92,100,7.9,moderate rain
633,Dongsheng,CN,2021-12-05 23:09:11,39.8161,109.9776,22.48,47,0,8.97,clear sky
634,Manokwari,ID,2021-12-05 23:09:12,-0.8667,134.0833,81.57,76,97,3.87,overcast clouds
635,Bloomington,US,2021-12-05 23:04:57,44.8408,-93.2983,38.75,67,90,20.0,overcast clouds
636,Irbil,IQ,2021-12-05 23:05:06,36.1926,44.0106,50.47,59,100,12.1,overcast clouds
637,Cascais,PT,2021-12-05 23:09:12,38.6979,-9.4215,57.61,72,8,1.01,clear sky
638,Bac Lieu,VN,2021-12-05 23:05:49,9.285,105.7244,70.66,88,100,8.12,overcast clouds
639,Koslan,RU,2021-12-05 23:09:13,63.4564,48.8989,9.66,95,61,5.55,broken clouds
640,Leticia,CO,2021-12-05 23:09:13,-4.2153,-69.9406,78.85,94,75,3.44,broken clouds
641,Waounde,SN,2021-12-05 23:09:13,15.2637,-12.8682,80.92,13,99,10.4,overcast clouds
642,Mangai,CD,2021-12-05 23:10:14,-4.05,19.5333,69.94,98,100,0.87,overcast clouds
643,San Quintin,MX,2021-12-05 23:05:29,30.4833,-115.95,64.04,73,0,14.76,clear sky
644,Springdale,US,2021-12-05 23:10:14,36.1867,-94.1288,68.2,89,90,17.0,overcast clouds
645,Emba,KZ,2021-12-05 23:10:15,48.8264,58.1442,26.8,78,100,6.31,overcast clouds
646,Odweyne,SO,2021-12-05 23:10:15,9.4092,45.064,61.72,56,10,2.82,clear sky
647,Gillette,US,2021-12-05 23:09:14,44.2911,-105.5022,20.25,78,75,18.99,broken clouds
648,Maniitsoq,GL,2021-12-05 23:10:15,65.4167,-52.9,26.24,76,100,32.35,light snow
649,Simao,CN,2021-12-05 23:10:16,22.7886,100.9748,54.81,77,91,2.08,overcast clouds
650,Leh,IN,2021-12-05 23:10:16,34.1667,77.5833,19.44,84,97,4.25,light snow
651,Tabas,IR,2021-12-05 23:10:16,33.5959,56.9244,50.29,34,64,1.66,broken clouds
652,Mahon,ES,2021-12-05 23:10:17,39.8885,4.2658,46.96,71,20,6.91,few clouds
653,Lingao,CN,2021-12-05 23:10:17,19.9103,109.6859,63.64,54,42,9.44,scattered clouds
654,Waingapu,ID,2021-12-05 23:10:18,-9.6567,120.2641,79.75,81,100,3.04,light rain
655,Alta Floresta,BR,2021-12-05 23:10:18,-9.8756,-56.0861,73.49,95,99,2.98,overcast clouds
656,Axim,GH,2021-12-05 23:07:04,4.8699,-2.2405,80.37,83,42,8.57,scattered clouds
657,Barcelona,ES,2021-12-05 23:10:18,41.3888,2.159,48.25,58,0,1.99,clear sky
658,Sayat,TM,2021-12-05 23:10:19,38.7839,63.8803,41.31,79,0,10.54,clear sky
659,Antalaha,MG,2021-12-05 23:10:19,-14.9003,50.2788,73.76,88,8,6.08,light rain
